{
  "students": [
    {
      "id": "1",
      "name": "John",
      "location": "India",
      "phone": "1234567890",
      "courses": [
        "Java",
        "Selenium"
      ]
    },
    {
      "id": "2",
      "name": "Kim",
      "location": "US",
      "phone": "2345678901",
      "courses": [
        "Python",
        "Appium"
      ]
    },
    {
      "id": "3",
      "name": "Smith",
      "location": "Canada",
      "phone": "3456789012",
      "courses": [
        "C#",
        "RestAPI"
      ]
    },
    {
      "id": "2f0b",
      "name": "Rutuja",
      "location": "California",
      "phone": "123456",
      "courses": [
        "Playright",
        "Cypress"
      ]
    },
    {
      "id": "eb03",
      "name": "Rutuja",
      "location": "California",
      "phone": "123456",
      "courses": [
        "Playright",
        "Cypress"
      ]
    },
    {
      "id": "dc1f",
      "name": "Rutuja",
      "location": "California",
      "phone": "123456",
      "courses": [
        "Playright",
        "Cypress"
      ]
    },
    {
      "id": "bea7",
      "name": "Rutuja",
      "location": "California",
      "phone": "123456",
      "courses": [
        "Playright",
        "Cypress"
      ]
    },
    {
      "id": "8c5f",
      "name": "Rutuja",
      "location": "California",
      "phone": "123456",
      "courses": [
        "Playright",
        "Cypress"
      ]
    },
    {
      "id": "b8f7",
      "name": "Rutuja",
      "location": "California",
      "phone": "123456",
      "courses": [
        "Playright",
        "Cypress"
      ]
    },
    {
      "id": "f543",
      "name": "Rutuja",
      "location": "California",
      "phone": "123456",
      "courses": [
        "Playright",
        "Cypress"
      ]
    }
  ]
}